stop_id,stop_code,stop_name,stop_lat,stop_lon,location_type,parent_station
102728,102728,Spall at Bernard,  49.887981,-119.454629,0,
102853,102853,Queensway Exchange,  49.887464,-119.495887,0,
102854,102854,Queensway Exchange,  49.887357,-119.494738,0,
102855,102855,Queensway Exchange,  49.887368,-119.494485,0,
102856,102856,Queensway Exchange,  49.887365,-119.494192,0,
102857,102857,Queensway Exchange,  49.887363,-119.493929,0,
102859,102859,Queensway Exchange,  49.887257,-119.494323,0,
102860,102860,Queensway Exchange,  49.887260,-119.494602,0,
102861,102861,Queensway Exchange,  49.887264,-119.494825,0,
102862,102862,Queensway Exchange,  49.887462,-119.496218,0,
102863,102863,Rutland at Sumac,  49.903880,-119.386711,0,
102865,102865,Water at Doyle,  49.889233,-119.496511,0,
102866,102866,Doyle at St Paul,  49.888909,-119.491494,0,
102867,102867,Doyle at Bertram,  49.889073,-119.490581,0,
102868,102868,Water at Leon,  49.884795,-119.496735,0,
102869,102869,Water at Leon,  49.884199,-119.496348,0,
102870,102870,Water at Cawston,  49.892092,-119.496518,0,
102874,102874,Bernard at Bertram,  49.886381,-119.489870,0,
102875,102875,Richter at Lawrence,  49.885636,-119.488660,0,
102877,102877,Bernard at Richter,  49.886224,-119.488185,0,
102878,102878,Clement at Sunset,  49.893504,-119.494902,0,
102879,102879,Richter at Wilson,  49.891021,-119.488622,0,
102880,102880,Richter at Fuller,  49.890611,-119.488360,0,
102881,102881,Pandosy at Buckland,  49.881662,-119.495149,0,
102882,102882,Leon at Richter,  49.884579,-119.486903,0,
102883,102883,Pandosy at Buckland,  49.881350,-119.494939,0,
102884,102884,Leon at Richter,  49.884417,-119.486660,0,
102885,102885,Richter at Clement,  49.893209,-119.488618,0,
102886,102886,Richter at Dehart,  49.881920,-119.488825,0,
102887,102887,Richter at Dehart,  49.882196,-119.488379,0,
102888,102888,Ellis at Industrial,  49.895813,-119.493415,0,
102889,102889,Bernard at Ethel,  49.886355,-119.483125,0,
102890,102890,Leon at Ethel,  49.884535,-119.483686,0,
102891,102891,Leon at Ethel,  49.884407,-119.483863,0,
102892,102892,Pandosy at Sutherland,  49.879699,-119.493572,0,
102893,102893,Bernard at Ethel,  49.886229,-119.482355,0,
102894,102894,Cawston at Ethel,  49.891682,-119.483310,0,
102895,102895,Richter at Gaston,  49.895678,-119.488600,0,
102896,102896,Pandosy at Sutherland,  49.879037,-119.492960,0,
102897,102897,Richter at Sutherland,  49.880037,-119.488366,0,
102898,102898,Cawston at Ethel,  49.891553,-119.482337,0,
102899,102899,Sutherland at Richter,  49.879777,-119.488127,0,
102900,102900,Bernard at Graham,  49.886354,-119.480200,0,
102901,102901,Ellis at Recreation,  49.897991,-119.493397,0,
102902,102902,Bernard at Graham,  49.886210,-119.479737,0,
102903,102903,Cawston at Graham,  49.891673,-119.480592,0,
102905,102905,Graham at Clement,  49.893276,-119.479999,0,
102906,102906,Sutherland at Ethel,  49.879920,-119.483106,0,
102907,102907,Bernard at Gordon,  49.886206,-119.478094,0,
102908,102908,Graham at Clement,  49.893220,-119.479763,0,
102909,102909,Bernard at Gordon,  49.886387,-119.478006,0,
102910,102910,Pandosy at Cadder,  49.876727,-119.491219,0,
102911,102911,Ellis at Roanoke,  49.899573,-119.493427,0,
102912,102912,Sutherland at Ethel,  49.879755,-119.482304,0,
102913,102913,Richter at Bay,  49.899274,-119.488595,0,
102914,102914,Pandosy at Cadder,  49.875889,-119.491345,0,
102915,102915,Bernard at Gordon,  49.886180,-119.476047,0,
102916,102916,Lawrence at Gordon,  49.885182,-119.476312,0,
102917,102917,Sutherland at Bowes,  49.879904,-119.480242,0,
102918,102918,Lawrence at Gordon,  49.885341,-119.475896,0,
102919,102919,Ellis at Okanagan,  49.901052,-119.493401,0,
102920,102920,Sutherland at Lequime,  49.879763,-119.478668,0,
102921,102921,Bernard at Danjou,  49.886363,-119.474299,0,
102922,102922,Richter at Okanagan,  49.901191,-119.488584,0,
102923,102923,Bernard at Danjou,  49.886225,-119.474116,0,
102924,102924,Ellis at Oxford,  49.901867,-119.493183,0,
102925,102925,Lawrence at Kelglen,  49.885183,-119.473185,0,
102926,102926,Lawrence at Kelglen,  49.885296,-119.472893,0,
102927,102927,Sutherland at Gordon,  49.880284,-119.475922,0,
102928,102928,Kelowna General Hospital,  49.873981,-119.491386,0,
102929,102929,Springfield at Ethel,  49.876344,-119.480602,0,
102930,102930,Kelowna General Hospital,  49.873416,-119.491082,0,
102931,102931,Sutherland at Gordon,  49.880127,-119.475248,0,
102932,102932,Cambridge at Ellis,  49.903459,-119.492403,0,
102933,102933,Bernard at Richmond,  49.886339,-119.471248,0,
102934,102934,Cambridge at Kingsway,  49.903459,-119.490635,0,
102935,102935,Richter at Cambridge,  49.903032,-119.488607,0,
102936,102936,Bernard at Richmond,  49.886217,-119.470995,0,
102937,102937,Lawrence at Richmond,  49.885189,-119.470718,0,
102938,102938,Sutherland at Capri,  49.880125,-119.473249,0,
102939,102939,Gordon at Springfield,  49.876463,-119.477271,0,
102941,102941,Springfield at Gordon,  49.876736,-119.476567,0,
102942,102942,Lawrence at Richmond,  49.885334,-119.470187,0,
102944,102944,Sutherland at Pacific,  49.880251,-119.472386,0,
102945,102945,Sutherland at Pacific,  49.880121,-119.471298,0,
102948,102948,Lawrence at Lakeview,  49.885332,-119.467437,0,
102950,102950,Springfield at Wilkinson,  49.877065,-119.472005,0,
102951,102951,Lawrence at Alta Vista,  49.885204,-119.466644,0,
102952,102952,Pandosy at Morrison,  49.869339,-119.491338,0,
102953,102953,Bernard at Highland Dr,  49.886350,-119.466012,0,
102954,102954,Springfield at Wilkinson,  49.876897,-119.471058,0,
102955,102955,Sutherland at Chandler,  49.880348,-119.467610,0,
102956,102956,Pandosy at Patterson,  49.868596,-119.491149,0,
102957,102957,Sutherland at Chandler,  49.880196,-119.467664,0,
102958,102958,Gordon at Guisachan,  49.872439,-119.476140,0,
102959,102959,Clifton at Hartwick,  49.893873,-119.465905,0,
102960,102960,Clifton at Hartwick,  49.893653,-119.465704,0,
102961,102961,Pandosy at Patterson,  49.868026,-119.491333,0,
102962,102962,Burtch at Kelglen,  49.883020,-119.465129,0,
102963,102963,Burtch at Kelglen,  49.882841,-119.465042,0,
102964,102964,Bernard at Noble,  49.886353,-119.463665,0,
102965,102965,Clifton at Lambert,  49.895898,-119.465914,0,
102966,102966,Clifton at Lambert,  49.895442,-119.465642,0,
102968,102968,Clifton at Lynwood,  49.897265,-119.465930,0,
102969,102969,Lawrence at Burtch,  49.884564,-119.462914,0,
102970,102970,Burtch at Dickson,  49.878439,-119.465975,0,
102971,102971,Lawrence at Burtch,  49.884388,-119.462891,0,
102972,102972,Burtch at Dickson,  49.878199,-119.465669,0,
102973,102973,Springfield at Burtch,  49.877036,-119.466345,0,
102974,102974,Bernard at Burtch,  49.886480,-119.461639,0,
102975,102975,Bernard at Cherry Cresent,  49.887003,-119.461214,0,
102976,102976,Pandosy at Raymer,  49.865713,-119.491377,0,
102977,102977,High at Glengarry,  49.897692,-119.464105,0,
102978,102978,Gordon at Cameron,  49.869870,-119.474791,0,
102979,102979,Springfield at Burtch,  49.876726,-119.465007,0,
102982,102982,Pandosy at Groves,  49.863396,-119.491387,0,
102984,102984,Pandosy at Groves,  49.863954,-119.491054,0,
102985,102985,Harvey at Kirschner,  49.881781,-119.459103,0,
102986,102986,Springfield at Dayton,  49.876856,-119.461732,0,
102987,102987,High at Tronson,  49.898487,-119.462265,0,
102988,102988,High at Tronson,  49.899143,-119.461287,0,
102989,102989,Harvey at Kirschner,  49.882138,-119.458098,0,
102990,102990,Springfield at Dayton,  49.876722,-119.460622,0,
102991,102991,Bernard at Dilworth Cresent,  49.888402,-119.456209,0,
102993,102993,Parkinson at Ufton,  49.883206,-119.456354,0,
102994,102994,Parkinson at Ufton,  49.883049,-119.455918,0,
102995,102995,Pandosy at KLO,  49.862286,-119.491115,0,
102996,102996,Springfield at Kirschner,  49.876880,-119.458767,0,
102997,102997,KLO at Tutt,  49.861885,-119.490847,0,
102998,102998,Rutland at Klassen,  49.907213,-119.386693,0,
102999,102999,Lakeshore at Cedar,  49.861670,-119.491383,0,
103000,103000,Glenmore at Dilworth,  49.889760,-119.454603,0,
103002,103002,Hwy 33 at Enterprise,  49.890690,-119.423559,0,
103003,103003,Glenmore at Bernard,  49.889047,-119.454197,0,
103004,103004,Springfield at Kirschner,  49.876775,-119.457969,0,
103005,103005,High at Kennedy,  49.900463,-119.458494,0,
103006,103006,Gordon at Raymer,  49.864562,-119.474466,0,
103007,103007,Glenmore at Highland Dr,  49.894025,-119.454602,0,
103008,103008,Glenmore at Highland Dr,  49.894068,-119.454154,0,
103009,103009,Enterprise at Spall,  49.884053,-119.453544,0,
103010,103010,High at Kennedy,  49.900379,-119.457536,0,
103011,103011,Spall at Windsor,  49.880412,-119.454699,0,
103012,103012,Spall at Windsor,  49.880864,-119.454453,0,
103013,103013,Glenmore at Mountain,  49.895917,-119.454562,0,
103014,103014,Springfield at Spall,  49.877184,-119.455971,0,
103015,103015,Enterprise at Spall,  49.884217,-119.452894,0,
103016,103016,Pandosy Exchange,  49.860392,-119.491071,0,
103018,103018,Spall at Kent,  49.878642,-119.454743,0,
103020,103020,KLO at Casorso,  49.860845,-119.484909,0,
103021,103021,Mission Rec Exchange,  49.837086,-119.480457,0,
103022,103022,Mission Rec Exchange,  49.836917,-119.480506,0,
103023,103023,Mission Rec Exchange,  49.836600,-119.480617,0,
103024,103024,Spall at Kent,  49.878878,-119.454468,0,
103025,103025,Lakeshore 3190 block,  49.860257,-119.491351,0,
103026,103026,Glenmore at Mountain,  49.896786,-119.454080,0,
103027,103027,Westside at Nancee Way,  49.883036,-119.538149,0,
103028,103028,Okanagan College Exchange,  49.861347,-119.479333,0,
103029,103029,Clement at Cerise,  49.892325,-119.470617,0,
103030,103030,Okanagan College Exchange,  49.861047,-119.479880,0,
103031,103031,Clement at Cerise,  49.892767,-119.471381,0,
103033,103033,Springfield at Spall,  49.877146,-119.453852,0,
103035,103035,Glenmore at High,  49.899961,-119.454414,0,
103036,103036,Enterprise at Enterprise Way,  49.883132,-119.450303,0,
103038,103038,KLO at Gordon,  49.860817,-119.475551,0,
103039,103039,Lanfranco at Lakeshore,  49.858134,-119.490324,0,
103040,103040,Casorso at Lanfranco,  49.858309,-119.485527,0,
103041,103041,Glenmore at Summit,  49.901873,-119.453518,0,
103042,103042,KLO at Holland,  49.861039,-119.472745,0,
103043,103043,Westside at Bear Creek,  49.892285,-119.542701,0,
103044,103044,Lakeshore at Lanfranco,  49.857142,-119.491101,0,
103045,103045,KLO at Holland,  49.860816,-119.472523,0,
103046,103046,Enterprise at Hardy,  49.883348,-119.448108,0,
103047,103047,Westside 1520 block,  49.885506,-119.544146,0,
103048,103048,Glenmore at Glenmeadows,  49.904053,-119.453378,0,
103049,103049,Hwy 97 N at Banks,  49.885664,-119.426698,0,
103050,103050,Enterprise at Hardy,  49.883173,-119.446938,0,
103051,103051,Glenmore at Glenmeadows,  49.903999,-119.452931,0,
103052,103052,Summit at Valley,  49.901196,-119.450258,0,
103053,103053,Summit at Valley,  49.901043,-119.450217,0,
103054,103054,KLO at Saint Amand,  49.861050,-119.467047,0,
103055,103055,Lakeshore at Richter,  49.855706,-119.490657,0,
103056,103056,Springfield at Barlee,  49.877088,-119.447809,0,
103057,103057,Springfield at Barlee,  49.877352,-119.447373,0,
103058,103058,Enterprise at Cooper,  49.883158,-119.444586,0,
103059,103059,KLO at Saint Amand,  49.860785,-119.466834,0,
103060,103060,Enterprise at Cooper,  49.883333,-119.444378,0,
103061,103061,Harvey at Cooper,  49.882084,-119.444669,0,
103062,103062,Lakeshore at Swordy,  49.854748,-119.490134,0,
103063,103063,Bear Creek at McNaughton,  49.892948,-119.547491,0,
103065,103065,Boucherie at Carrall,  49.825077,-119.609494,0,
103066,103066,Parkinson at Bear Creek,  49.898917,-119.547054,0,
103067,103067,Harvey at Cooper,  49.881738,-119.442157,0,
103069,103069,Orchard Park Exchange,  49.880248,-119.442587,0,
103070,103070,Orchard Park Exchange,  49.880399,-119.442588,0,
103071,103071,Orchard Park Exchange,  49.880564,-119.442564,0,
103072,103072,Orchard Park Exchange,  49.880639,-119.442281,0,
103073,103073,Orchard Park Exchange,  49.880462,-119.442285,0,
103075,103075,Orchard Park Exchange,  49.880310,-119.442278,0,
103076,103076,Enterprise at Cooper,  49.883161,-119.441661,0,
103077,103077,Orchard Park Exchange,  49.879624,-119.442284,0,
103078,103078,Boucherie at Hayman,  49.872673,-119.544716,0,
103079,103079,Orchard Park Exchange,  49.880037,-119.442282,0,
103080,103080,Glenmore at Yates,  49.909103,-119.450890,0,
103081,103081,McCurdy at Alsgard,  49.901251,-119.406117,0,
103082,103082,Summit at Denali,  49.898838,-119.442599,0,
103083,103083,Summit at Denali,  49.898413,-119.442305,0,
103084,103084,KLO at Benvoulin,  49.861043,-119.458536,0,
103086,103086,Springfield at Cooper,  49.877101,-119.441644,0,
103087,103087,Glenmore at Yates,  49.909656,-119.450055,0,
103088,103088,KLO at Benvoulin,  49.860816,-119.459949,0,
103089,103089,Summit at Lillooet,  49.895688,-119.439966,0,
103090,103090,Yates at Glenmore,  49.908867,-119.448961,0,
103091,103091,Lakeshore at Bechard,  49.851516,-119.486806,0,
103092,103092,Enterprise at Dilworth,  49.883316,-119.438620,0,
103093,103093,Lakeshore at Bechard,  49.851509,-119.487041,0,
103094,103094,Parkinson at Westlake,  49.891248,-119.552765,0,
103095,103095,Summit at Chilcotin,  49.895922,-119.439118,0,
103096,103096,Dilworth at Leckie,  49.886988,-119.437851,0,
103097,103097,Springfield at Benvoulin,  49.877337,-119.440136,0,
103098,103098,Yates at Valley,  49.908634,-119.447272,0,
103099,103099,Dilworth at Leckie,  49.887000,-119.437646,0,
103101,103101,Dilworth at Enterprise,  49.884382,-119.437852,0,
103102,103102,Dilworth at Enterprise,  49.884511,-119.437642,0,
103103,103103,Glenmore at Watson,  49.911220,-119.449422,0,
103104,103104,Glenmore at Cross,  49.922403,-119.439953,0,
103105,103105,Enterprise at Dilworth,  49.883179,-119.436896,0,
103107,103107,Glenmore at Watson,  49.911648,-119.448733,0,
103108,103108,Dilworth at Baron,  49.878889,-119.437075,0,
103110,103110,Westlake at Keloka,  49.887060,-119.555748,0,
103111,103111,Summit at Skeena,  49.898599,-119.436441,0,
103113,103113,Lakeshore at Barrera,  49.848947,-119.486040,0,
103114,103114,KLO at Como,  49.860858,-119.450545,0,
103115,103115,Westlake at Horizon,  49.885028,-119.556980,0,
103116,103116,KLO at Como,  49.861047,-119.449972,0,
103117,103117,Summit at Skeena,  49.898808,-119.435562,0,
103118,103118,Dilworth at Omineca,  49.891224,-119.433266,0,
103119,103119,Lakeshore at Barrera,  49.848548,-119.486383,0,
103121,103121,Baron at Underhill,  49.879529,-119.434153,0,
103122,103122,Enterprise at Leckie,  49.884015,-119.432704,0,
103123,103123,Dilworth at Omineca,  49.891488,-119.432566,0,
103125,103125,Baron at Durnin,  49.879677,-119.433265,0,
103126,103126,Enterprise at Leckie,  49.885614,-119.431934,0,
103127,103127,Enterprise at Hunter,  49.885917,-119.431643,0,
103128,103128,Summit at Lillooet,  49.899275,-119.433616,0,
103129,103129,Summit at Lillooet,  49.899363,-119.433080,0,
103130,103130,Springfield at Durnin,  49.877785,-119.432435,0,
103131,103131,Glenmore at Ballou,  49.915649,-119.446367,0,
103132,103132,Cross at Glenmore,  49.923445,-119.440066,0,
103133,103133,Lakeshore at Cook,  49.846219,-119.487270,0,
103134,103134,Anders at Thacker,  49.859909,-119.545448,0,
103135,103135,Anders at Thacker,  49.860043,-119.545738,0,
103136,103136,Glenmore at Kane,  49.916157,-119.445629,0,
103138,103138,Springfield at Durnin,  49.878053,-119.430845,0,
103139,103139,Lakeshore at Cook,  49.845203,-119.487974,0,
103140,103140,Kane at Drysdale,  49.915240,-119.443902,0,
103141,103141,Enterprise at Banks,  49.888696,-119.428665,0,
103142,103142,Baron at Leckie,  49.882505,-119.428757,0,
103143,103143,Summit at Purcell,  49.899639,-119.430672,0,
103144,103144,Baron at Leckie,  49.882448,-119.428555,0,
103145,103145,Dilworth at Cascade,  49.892928,-119.428223,0,
103146,103146,KLO at Spiers,  49.860618,-119.442190,0,
103147,103147,Dilworth at Cascade,  49.892758,-119.428106,0,
103148,103148,Summit at Nahanni,  49.899911,-119.430096,0,
103149,103149,KLO at Spiers,  49.860480,-119.442406,0,
103151,103151,Lakeshore at Truswell,  49.843896,-119.487699,0,
103152,103152,Lakeshore at Truswell,  49.843814,-119.488023,0,
103153,103153,Black Mountain at Large,  49.872011,-119.348473,0,
103154,103154,Glenmore at Dallas,  49.917991,-119.444750,0,
103155,103155,Enterprise at Banks,  49.889483,-119.426500,0,
103156,103156,Springfield at Leckie,  49.879518,-119.427494,0,
103158,103158,Springfield at Leckie,  49.879415,-119.427181,0,
103159,103159,Glenmore at Dallas,  49.918406,-119.444033,0,
103160,103160,Thacker at Douglas,  49.856385,-119.545412,0,
103161,103161,Westlake at Starlight,  49.879147,-119.564259,0,
103162,103162,Boucherie at Stuart,  49.864126,-119.555201,0,
103163,103163,Anders at Olalla,  49.860124,-119.550637,0,
103164,103164,Anders at Olalla,  49.860326,-119.551986,0,
103165,103165,Enterprise at Powick,  49.890288,-119.425444,0,
103166,103166,Dilworth 960 Block,  49.896903,-119.426346,0,
103167,103167,Thacker at Douglas,  49.855785,-119.545656,0,
103168,103168,Summit at Dilworth,  49.898639,-119.426847,0,
103169,103169,Baron 1900 Block,  49.883696,-119.425184,0,
103170,103170,Summit at Dilworth,  49.898813,-119.426785,0,
103171,103171,Baron at Banks,  49.884324,-119.424840,0,
103172,103172,Dilworth 970 Block,  49.896538,-119.425913,0,
103173,103173,Westlake at Caledonia,  49.873506,-119.562942,0,
103174,103174,Hwy 97 N at Banks,  49.886849,-119.424077,0,
103176,103176,Arborview at Steele,  49.805908,-119.473049,0,
103177,103177,Gordon at Powerline Park,  49.805314,-119.476309,0,
103178,103178,Westlake at Rosewood,  49.877699,-119.566296,0,
103180,103180,Hudson at Boucherie,  49.862348,-119.556499,0,
103181,103181,Thacker at Collens Hill,  49.853831,-119.545704,0,
103182,103182,Thacker at Collens Hill,  49.853826,-119.545870,0,
103183,103183,Hudson at Boucherie,  49.862485,-119.556891,0,
103184,103184,Baron at Spedding,  49.886342,-119.422104,0,
103185,103185,Lakeshore at Bluebird,  49.840342,-119.488773,0,
103186,103186,Baron at Spedding,  49.886349,-119.421773,0,
103187,103187,Gordon at Frost,  49.803729,-119.476941,0,
103188,103188,Lakeshore at Lexington,  49.840456,-119.488368,0,
103189,103189,Springfield at Parkview,  49.880368,-119.421913,0,
103190,103190,Springfield at Parkview,  49.880602,-119.421603,0,
103191,103191,South Ridge at Frost,  49.803393,-119.482616,0,
103192,103192,Hwy 33 E at Rutland Rd,  49.889114,-119.387728,0,
103193,103193,Rutland Exchange,  49.890664,-119.392385,0,
103195,103195,Thacker at Beverly,  49.852540,-119.547834,0,
103197,103197,Thacker at Beverly,  49.852702,-119.548550,0,
103198,103198,Lynrick at Loseth,  49.867608,-119.353362,0,
103201,103201,Ziprick at Terai,  49.888304,-119.417730,0,
103202,103202,Springfield at Ziprick,  49.880595,-119.418540,0,
103203,103203,Valley at Cross,  49.919185,-119.434744,0,
103204,103204,Ziprick at Terai,  49.888049,-119.417466,0,
103205,103205,Springfield at Ziprick,  49.880365,-119.418405,0,
103206,103206,Snowsell at Cross,  49.924458,-119.441725,0,
103213,103213,Enterprise at Hwy. 97,  49.895270,-119.416470,0,
103214,103214,Lakeshore at Lequime,  49.836528,-119.487131,0,
103215,103215,Enterprise at Highway 97,  49.895437,-119.416067,0,
103216,103216,Ogden at Boucherie,  49.853021,-119.555717,0,
103217,103217,Ogden at Boucherie,  49.852882,-119.555645,0,
103219,103219,Alhambra at Brentwood,  49.862007,-119.566777,0,
103220,103220,Alhambra at Brentwood,  49.862031,-119.566978,0,
103221,103221,Hwy 33 W at Taylor,  49.889098,-119.413397,0,
103222,103222,Hwy 33 W at Taylor,  49.888984,-119.413155,0,
103224,103224,Valley at Drysdale,  49.923136,-119.432961,0,
103226,103226,Snowsell at Porthill,  49.927193,-119.439019,0,
103227,103227,Springfield at Graham,  49.879763,-119.413361,0,
103230,103230,Stevens 1380 Block,  49.866250,-119.571888,0,
103231,103231,KLO at McCulloch,  49.859708,-119.424183,0,
103232,103232,KLO at McCulloch,  49.859510,-119.424104,0,
103233,103233,Brentwood at Denny,  49.861174,-119.569309,0,
103234,103234,Brentwood at Denny,  49.861275,-119.569258,0,
103235,103235,Springfield at Gerstmar,  49.878810,-119.411882,0,
103236,103236,Union at Wyndham,  49.927786,-119.437138,0,
103239,103239,Boucherie at Montigny,  49.848947,-119.557071,0,
103240,103240,Hwy 33 W at Gerstmar,  49.889113,-119.410015,0,
103243,103243,Union at Valley Rd,  49.925397,-119.432029,0,
103244,103244,Boucherie at Montigny,  49.848724,-119.557592,0,
103245,103245,Hwy 33 W at Gerstmar,  49.888925,-119.408851,0,
103246,103246,Gerstmar at Thompson,  49.879038,-119.409569,0,
103248,103248,Lakeshore at Old Meadows,  49.831965,-119.487765,0,
103249,103249,Brentwood at Applewood,  49.861458,-119.572556,0,
103250,103250,Gerstmar at Thompson,  49.879033,-119.409360,0,
103251,103251,Ross at Stevens,  49.865819,-119.575820,0,
103252,103252,Graham at Gerstmar,  49.881709,-119.408743,0,
103253,103253,Graham at Irma,  49.881846,-119.408565,0,
103254,103254,Brentwood at Applewood,  49.861339,-119.572589,0,
103256,103256,Hwy 97 at McCurdy - McCurdy Station,  49.900552,-119.409748,0,
103257,103257,Gordon at Welke,  49.831492,-119.483343,0,
103258,103258,Ross at Western,  49.863678,-119.575828,0,
103260,103260,Hwy 33 W at Bryden,  49.889164,-119.406355,0,
103261,103261,Brentwood at Vista,  49.861359,-119.575227,0,
103262,103262,Ross at Brentwood,  49.861896,-119.575830,0,
103263,103263,Hwy 97 at McCurdy - McCurdy Station,  49.902097,-119.407909,0,
103264,103264,Hwy 33 at Davie,  49.888930,-119.405389,0,
103265,103265,Ross at Brentwood,  49.861228,-119.576052,0,
103266,103266,Boucherie at Gregory,  49.846778,-119.560239,0,
103268,103268,Boucherie at Gregory,  49.846492,-119.561022,0,
103271,103271,Graham at Matt,  49.881866,-119.403433,0,
103272,103272,Lakeshore at Simeon,  49.828278,-119.488617,0,
103274,103274,Hwy 33 W at Franklyn,  49.889109,-119.403018,0,
103277,103277,Graham at Matt,  49.881703,-119.402822,0,
103278,103278,Hwy 33 W at Barber,  49.888930,-119.401796,0,
103279,103279,Ross at Applegreen,  49.860873,-119.580096,0,
103282,103282,Ross at Applegreen,  49.860722,-119.580118,0,
103283,103283,McCurdy at Mayfair,  49.901263,-119.403089,0,
103285,103285,McCulloch at Hart,  49.853403,-119.416699,0,
103286,103286,McCulloch at Hart,  49.853449,-119.415969,0,
103287,103287,Leathead at Franklyn,  49.895444,-119.400330,0,
103288,103288,Franklyn at Pearson,  49.898092,-119.400862,0,
103289,103289,Hollydell at Stirling,  49.882729,-119.399869,0,
103290,103290,Lakeshore at Willms,  49.825965,-119.488637,0,
103291,103291,Hollydell at Stirling,  49.882824,-119.399684,0,
103292,103292,Franklyn at McCurdy,  49.900875,-119.400889,0,
103293,103293,Dehart at Bartholomew,  49.826568,-119.476277,0,
103294,103294,Crawford at Dehart,  49.828680,-119.464161,0,
103295,103295,Crawford at Dehart,  49.828723,-119.464370,0,
103296,103296,Hwy 33 W at Hollywood,  49.888901,-119.398761,0,
103297,103297,Hwy 33 W at Hollywood,  49.889154,-119.398970,0,
103298,103298,Dehart at Bartholomew,  49.826462,-119.476191,0,
103299,103299,Ross at Cameron,  49.860749,-119.583017,0,
103300,103300,Finns at Fitzpatrick,  49.906505,-119.402429,0,
103301,103301,Ross at Riffington,  49.860895,-119.583695,0,
103302,103302,Boucherie at Sunnyside,  49.843882,-119.565455,0,
103303,103303,Hollywood Rd at Perry,  49.880850,-119.398369,0,
103304,103304,Hollywood Road  at Perry,  49.881185,-119.398152,0,
103305,103305,Gordon at Balsam,  49.825028,-119.483293,0,
103306,103306,Boucherie at Sunnyside,  49.843678,-119.566108,0,
103307,103307,Hollywood at Quigley,  49.877543,-119.398372,0,
103308,103308,Hollywood S at Juniper,  49.877762,-119.398106,0,
103309,103309,Hollywood S at Springfield,  49.875624,-119.398410,0,
103310,103310,Hollywood S at Springfield,  49.875168,-119.398180,0,
103311,103311,Ross at Westgate,  49.860764,-119.585935,0,
103312,103312,Hwy 33 W at Aurora,  49.888928,-119.395936,0,
103313,103313,Springfield at Monterey,  49.874339,-119.397574,0,
103316,103316,Dehart at Gordon,  49.822903,-119.482495,0,
103317,103317,Lakeshore at Dehart,  49.822175,-119.488896,0,
103319,103319,Lakeshore at Dehart,  49.822535,-119.488941,0,
103321,103321,Hwy 33 W at Dougall,  49.889122,-119.394282,0,
103322,103322,Leathead at Tartan,  49.895409,-119.393966,0,
103323,103323,McCulloch at Reekie,  49.851977,-119.409748,0,
103324,103324,McCulloch at Reekie,  49.851680,-119.409954,0,
103325,103325,Gordon at Dehart,  49.822185,-119.483285,0,
103326,103326,Dougall Rd at Shephard,  49.892620,-119.392690,0,
103327,103327,Fitzpatrick at Findlay,  49.907197,-119.396839,0,
103328,103328,Ross at Bartley,  49.860203,-119.589712,0,
103329,103329,Ross at Bartley,  49.860147,-119.589572,0,
103331,103331,Springfield at Hollywood,  49.874521,-119.394092,0,
103334,103334,Springfield at Hollywood,  49.874324,-119.393808,0,
103335,103335,Leathead at Asher,  49.895279,-119.391569,0,
103337,103337,Lakeshore at Eldorado,  49.820534,-119.491028,0,
103340,103340,Lakeshore at Eldorado,  49.820550,-119.491341,0,
103342,103342,Lakeshore 4069 Block,  49.837845,-119.488030,0,
103343,103343,Fitzpatrick at Chichester,  49.907193,-119.394009,0,
103344,103344,Leathead at Pinetree,  49.895405,-119.390234,0,
103346,103346,Springfield at Neptune,  49.877604,-119.390462,0,
103347,103347,Lakeshore at Keith,  49.818795,-119.493094,0,
103348,103348,McCulloch 3280 Block,  49.846418,-119.409904,0,
103349,103349,McCulloch 3280 Block,  49.846440,-119.409703,0,
103351,103351,Boucherie at Mission Hill,  49.840131,-119.573606,0,
103354,103354,Leathead at Ford,  49.895649,-119.388096,0,
103355,103355,Lakeshore at Keith,  49.818293,-119.493994,0,
103357,103357,Springfield at Neptune,  49.877662,-119.388535,0,
103359,103359,Boucherie at Mission Hill,  49.839745,-119.574077,0,
103360,103360,Fitzpatrick at Stafford,  49.907189,-119.391208,0,
103361,103361,Rutland at Robson,  49.886768,-119.387023,0,
103362,103362,Sexsmith at Cambro,  49.918511,-119.398120,0,
103363,103363,Rutland Rd S at Gray,  49.888478,-119.387070,0,
103364,103364,Rutland at Holbrook,  49.885199,-119.387080,0,
103365,103365,Rutland at McIntosh,  49.890902,-119.387055,0,
103366,103366,Rutland Rd at Jupiter,  49.879342,-119.387829,0,
103367,103367,Rutland Rd at Jupiter,  49.880053,-119.387593,0,
103368,103368,Crawford 1230 Block,  49.820218,-119.466928,0,
103369,103369,Rutland Rd at Benchview,  49.882905,-119.387127,0,
103370,103370,Rutland Rd at Mugford,  49.892748,-119.387035,0,
103372,103372,Rutland Rd at Belgo,  49.882131,-119.386889,0,
103373,103373,Rutland Rd at Mugford,  49.892957,-119.386799,0,
103374,103374,Hollywood at Sexsmith,  49.918537,-119.397768,0,
103375,103375,Rutland Rd at Hardie,  49.895118,-119.387022,0,
103376,103376,Rutland Rd at Briarwood,  49.894327,-119.386761,0,
103377,103377,Rutland Rd at Leathead,  49.896677,-119.386964,0,
103378,103378,Hwy 33 E at Sadler,  49.888907,-119.386029,0,
103379,103379,Ross at Daimler,  49.856235,-119.593859,0,
103380,103380,Rutland Rd at Hartman,  49.899456,-119.387036,0,
103381,103381,Ross at Daimler,  49.856218,-119.594034,0,
103382,103382,Rutland at McCurdy,  49.900649,-119.386993,0,
103383,103383,Husch at Scarboro,  49.883602,-119.385261,0,
103384,103384,Rutland at McCurdy,  49.901504,-119.386678,0,
103385,103385,Rutland at Sumac,  49.903345,-119.386936,0,
103387,103387,Fitzpatrick at Aldon,  49.907184,-119.388155,0,
103388,103388,East Boundary 3120 Block,  49.848602,-119.588961,0,
103389,103389,East Boundary 3130 Block,  49.848560,-119.589187,0,
103392,103392,Rutland at Fitzpatrick,  49.906881,-119.386872,0,
103393,103393,Old Okanagan at Daimler,  49.856035,-119.596514,0,
103395,103395,Old Okanagan at Daimler,  49.856046,-119.596786,0,
103396,103396,McCurdy at Keyes,  49.901229,-119.384544,0,
103399,103399,McCulloch at June Springs,  49.841037,-119.408292,0,
103401,103401,Westridge at Crawford,  49.817365,-119.463839,0,
103403,103403,East Boundary at Vineyard,  49.845680,-119.588919,0,
103405,103405,Husch at Molnar,  49.883596,-119.381521,0,
103406,103406,McCulloch at June Springs,  49.840756,-119.406999,0,
103407,103407,East Boundary at Eagle,  49.844882,-119.589162,0,
103408,103408,Gordon at Buck,  49.813639,-119.482891,0,
103410,103410,Molnar at Milton,  49.887545,-119.379682,0,
103411,103411,Molnar at Husch,  49.884190,-119.379628,0,
103412,103412,Molnar at Holbrook,  49.885781,-119.379692,0,
103414,103414,Hwy 33 E at Molnar,  49.888942,-119.379180,0,
103416,103416,McCurdy at Friesen,  49.901637,-119.380362,0,
103417,103417,Boucherie at Green Bay,  49.835005,-119.579299,0,
103418,103418,Boucherie at Green Bay,  49.834747,-119.579462,0,
103419,103419,McCulloch 3520 Block,  49.840528,-119.403681,0,
103420,103420,McCulloch 3530 Block,  49.840325,-119.403002,0,
103421,103421,Muir at McKenzie,  49.889734,-119.377282,0,
103422,103422,East Boundary at Elk,  49.840472,-119.588920,0,
103423,103423,Westridge at Blueridge,  49.813662,-119.465285,0,
103424,103424,Parkridge at Mission Ridge,  49.815026,-119.457974,0,
103425,103425,Old Vernon at Acland,  49.918048,-119.382879,0,
103426,103426,Hardie at Hemlock,  49.894929,-119.376819,0,
103427,103427,East Boundary at Elk,  49.840227,-119.589158,0,
103428,103428,Merrifield at Mugford,  49.892318,-119.376074,0,
103429,103429,Craig at Hartman,  49.899470,-119.376885,0,
103430,103430,McCurdy at Craig,  49.901840,-119.377519,0,
103432,103432,Chute Lake at Barnaby,  49.809682,-119.498250,0,
103433,103433,McCulloch at Spaarpak,  49.840127,-119.399666,0,
103434,103434,Old Okanagan at Shamrock,  49.849151,-119.601061,0,
103435,103435,Old Okanagan at Shamrock,  49.849244,-119.601161,0,
103436,103436,McCulloch at Spaarpak,  49.839930,-119.399007,0,
103439,103439,Gordon 870 Block,  49.809905,-119.472002,0,
103440,103440,Parkridge at Appleridge,  49.812257,-119.456911,0,
103441,103441,Westridge at Appleridge,  49.810851,-119.463123,0,
103444,103444,Westridge at Westridge Ct.,  49.809055,-119.461363,0,
103445,103445,Chute Lake at Winery,  49.805968,-119.499583,0,
103446,103446,Hwy 33 E at Toovey,  49.877485,-119.368794,0,
103447,103447,Ridge Estates at Elk,  49.836243,-119.594780,0,
103448,103448,Hwy 33 E at Toovey,  49.878837,-119.369306,0,
103450,103450,Elk at Ridge Estates,  49.836310,-119.595872,0,
103451,103451,Arbor View at Windsong,  49.805735,-119.481243,0,
103452,103452,Boucherie at Pritchard,  49.830882,-119.588193,0,
103457,103457,Okanagan College Exchange,  49.860833,-119.481203,0,
103458,103458,McCulloch at McClain,  49.837911,-119.392937,0,
103459,103459,Old Okanagan at Old Raven,  49.845501,-119.606395,0,
103460,103460,Boucherie at Pritchard,  49.830583,-119.589060,0,
103461,103461,McCulloch at Lakevale,  49.837755,-119.391558,0,
103462,103462,Old Okanagan at Louie,  49.845484,-119.607281,0,
103463,103463,Elk at Cougar,  49.838971,-119.601398,0,
103464,103464,Parkridge at Westridge,  49.807642,-119.455922,0,
103465,103465,Elk at Cougar,  49.839165,-119.602458,0,
103467,103467,Old Boucherie at Pritchard,  49.827789,-119.589255,0,
103469,103469,Woodstock at Sandstone Dr,  49.849628,-119.613768,0,
103470,103470,Parkridge at Woodridge,  49.809489,-119.456228,0,
103471,103471,Woodstock at Shannon,  49.850821,-119.614949,0,
103472,103472,Main at Grant,  50.027302,-119.403414,0,
103473,103473,Old Okanagan at Old Raven,  49.844757,-119.609848,0,
103474,103474,Old Boucherie at Pritchard,  49.827908,-119.589945,0,
103475,103475,Woodstock at Shannon Place,  49.850925,-119.614868,0,
103477,103477,Hwy 33 E at Langford,  49.889099,-119.378996,0,
103478,103478,Old Vernon at Morrison,  49.918208,-119.370117,0,
103480,103480,Old Vernon at Morrison,  49.918071,-119.369456,0,
103481,103481,Shannon Way at Westville,  49.849038,-119.615610,0,
103482,103482,Hwy 33 E at Sadler,  49.889037,-119.385844,0,
103483,103483,Carrington at Elk,  49.838415,-119.608981,0,
103484,103484,Old Boucherie at Hitchner,  49.827734,-119.592997,0,
103485,103485,Carrington at Elk,  49.838669,-119.609115,0,
103486,103486,Old Boucherie at Hitchner,  49.827861,-119.593579,0,
103489,103489,McCulloch at Gallaghers Blvd,  49.837955,-119.382259,0,
103490,103490,Hwy 33 E at Hume,  49.868728,-119.361102,0,
103491,103491,Old Boucherie 1950 Block,  49.827813,-119.596997,0,
103492,103492,Old Boucherie 1950 Block,  49.827703,-119.597022,0,
103493,103493,Shannon Lake at Shannon Way,  49.849555,-119.619826,0,
103495,103495,Shannon Lake at Shannon Way,  49.849456,-119.620198,0,
103497,103497,Louie at Elk,  49.840315,-119.612567,0,
103500,103500,Old Boucherie at Boucherie,  49.827668,-119.598752,0,
103501,103501,Hwy 33 E at Traut,  49.869029,-119.362989,0,
103502,103502,Old Okanagan at Bayview,  49.843471,-119.617341,0,
103503,103503,Old Vernon at McKenzie,  49.919618,-119.364327,0,
103505,103505,Old Okanagan at Bayview,  49.843626,-119.617363,0,
103506,103506,Old Vernon at McKenzie,  49.919620,-119.364073,0,
103507,103507,Cooper at Harvey,  49.879568,-119.443092,0,
103508,103508,Carrington 3530 Block,  49.836792,-119.611145,0,
103509,103509,Carrington 3530 Block,  49.836874,-119.611330,0,
103510,103510,Boucherie 2070 Block,  49.827688,-119.600225,0,
103511,103511,Louie at Butt,  49.838531,-119.614986,0,
103512,103512,Cooper at Harvey,  49.879527,-119.443424,0,
103513,103513,Shannon Lake at Old Okanagan Hwy,  49.846515,-119.622228,0,
103515,103515,Loseth at Autumn,  49.866079,-119.354203,0,
103516,103516,Shannon Lake at Old Okanagan Hwy,  49.846219,-119.622340,0,
103518,103518,Boucherie 2030 Block,  49.826773,-119.602108,0,
103519,103519,Boucherie 2030 Block,  49.826647,-119.602017,0,
103520,103520,Quilchena at Providence,  49.796658,-119.511630,0,
103521,103521,Loseth at Feedham,  49.869216,-119.355411,0,
103522,103522,Chute Lake 5150 Block,  49.795586,-119.502190,0,
103523,103523,Quilchena at Thalia,  49.796228,-119.514825,0,
103524,103524,Sunrise at Loseth,  49.862198,-119.357754,0,
103525,103525,Butt at Carrington,  49.835595,-119.614303,0,
103526,103526,Large at St Clare,  49.871898,-119.353768,0,
103527,103527,Butt at Carrington,  49.835320,-119.614414,0,
103528,103528,Old Okanagan at Shannon Lake,  49.844878,-119.623823,0,
103529,103529,Boucherie 2040 Block,  49.826234,-119.604740,0,
103531,103531,Loseth at Lynrick,  49.867476,-119.354804,0,
103532,103532,Boucherie 2040 Block,  49.826190,-119.605262,0,
103533,103533,Quilchena 370 Block,  49.795054,-119.518686,0,
103535,103535,Butt at Louie,  49.837012,-119.619361,0,
103537,103537,Butt at Louie,  49.836897,-119.619366,0,
103538,103538,Hwy 33 E at Oswell (EB),  49.868178,-119.350592,0,
103539,103539,Sunrise at Lynrick,  49.863169,-119.353659,0,
103540,103540,Quilchena at Raven,  49.793962,-119.520991,0,
103541,103541,Old Okanagan 3330 Block,  49.842447,-119.625416,0,
103542,103542,Old Okanagan 3340 Block,  49.842364,-119.625592,0,
103547,103547,Old Vernon at Scotty Creek,  49.933218,-119.364262,0,
103548,103548,Old Vernon at Scotty Creek,  49.933012,-119.364054,0,
103550,103550,Lynrick at Autumn,  49.865283,-119.350585,0,
103551,103551,Old Okanagan at Chieftain,  49.840287,-119.625411,0,
103552,103552,Old Okanagan at Chieftain,  49.840198,-119.625603,0,
103553,103553,Boucherie at Carrall,  49.825236,-119.609474,0,
103554,103554,Black Mountain at Linda,  49.870802,-119.347973,0,
103556,103556,Old Okanagan at Quince,  49.838299,-119.625588,0,
103557,103557,Black Mountain at Begley,  49.869365,-119.347167,0,
103561,103561,Old Vernon 3600 Block,  49.937160,-119.364022,0,
103562,103562,Quilchena at Providence,  49.791274,-119.521882,0,
103563,103563,Old Okanagan at Butt,  49.837115,-119.625331,0,
103564,103564,Old Vernon 3660 Block,  49.937535,-119.364228,0,
103565,103565,Old Okanagan at Butt,  49.836544,-119.625570,0,
103566,103566,Boucherie at Carrall,  49.824763,-119.612680,0,
103569,103569,Airport Way 5610 Block,  49.955849,-119.381414,0,
103573,103573,Elliott at Reece,  49.844213,-119.634096,0,
103574,103574,Airport Way 5680 Block,  49.955711,-119.381640,0,
103575,103575,Old Okanagan at Bering,  49.834197,-119.625524,0,
103576,103576,Old Vernon at Bulman,  49.940426,-119.364035,0,
103577,103577,Old Vernon at Bulman,  49.940790,-119.364547,0,
103579,103579,Gellatly at Carrington,  49.829152,-119.620615,0,
103580,103580,Gellatly at Witt,  49.827317,-119.618766,0,
103581,103581,Gellatly at Carrington,  49.829418,-119.621120,0,
103582,103582,Gellatly at Witt,  49.827575,-119.618995,0,
103584,103584,Old Okanagan 3590 Block,  49.833436,-119.625314,0,
103585,103585,Elliott at Neufeld,  49.841926,-119.634020,0,
103586,103586,Boucherie at Gellatly,  49.823792,-119.615841,0,
103587,103587,Gellatly at Angus,  49.824921,-119.617676,0,
103589,103589,Smith Creek at Elliott,  49.847822,-119.639258,0,
103590,103590,Boucherie at Gellatly,  49.823769,-119.616587,0,
103593,103593,Old Okanagan at Drought,  49.830672,-119.625474,0,
103594,103594,Elliott at Butt,  49.836405,-119.631148,0,
103595,103595,Old Okanagan at Drought,  49.830136,-119.625289,0,
103596,103596,Dobbin at Old Okanagan,  49.828637,-119.624752,0,
103597,103597,Main at Hoskins,  49.829678,-119.626288,0,
103598,103598,Elliott 3580 Block,  49.833550,-119.631244,0,
103599,103599,Old Vernon at Black,  49.951123,-119.368855,0,
103600,103600,Old Vernon at Black,  49.951133,-119.368670,0,
103601,103601,Main at Brown,  49.829653,-119.629324,0,
103602,103602,Elliott at Delray,  49.830165,-119.631131,0,
103604,103604,Airport Way at Lapointe Drive,  49.964145,-119.381675,0,
103607,103607,Airport Way at Lapointe Drive,  49.964185,-119.381893,0,
103608,103608,Lower Glenrosa at Paynter,  49.829714,-119.635663,0,
103609,103609,6250 Blk Airport Way,  49.969763,-119.383770,0,
103610,103610,6240 Blk Airport Way,  49.969502,-119.383393,0,
103611,103611,Hwy 97 at Old Vernon,  49.970782,-119.385689,0,
103613,103613,Old Vernon at Teather,  49.960966,-119.368982,0,
103614,103614,Webber at Dunbarton,  49.838940,-119.653313,0,
103615,103615,Webber at McAllister,  49.840961,-119.655439,0,
103616,103616,Webber at Gorman,  49.837051,-119.653275,0,
103617,103617,Webber at Aberdeen,  49.835379,-119.653262,0,
103618,103618,Webber at McRae,  49.843041,-119.659006,0,
103619,103619,Old Vernon at Spencer,  49.970359,-119.370699,0,
103620,103620,Old Vernon at Spencer,  49.970513,-119.370675,0,
103621,103621,Lower Glenrosa at Glenway,  49.826582,-119.646794,0,
103622,103622,Webber at McGregor,  49.845421,-119.661728,0,
103623,103623,Webber at Scottstown,  49.832890,-119.653237,0,
103624,103624,McNair at Webber,  49.847166,-119.663504,0,
103625,103625,McIver at McRae,  49.841965,-119.661999,0,
103626,103626,McIver at McBain,  49.843758,-119.663674,0,
103627,103627,Webber at Salloum,  49.829946,-119.653219,0,
103628,103628,McIver at McTaggart,  49.839649,-119.660963,0,
103629,103629,McIver at McRobbie,  49.846687,-119.665797,0,
103630,103630,Lower Glenrosa at Glenford,  49.828216,-119.652865,0,
103631,103631,McLeod at McGinnis,  49.843999,-119.665390,0,
103632,103632,Lower Glenrosa at Glen,  49.825004,-119.650733,0,
103633,103633,McGinnis at McGee,  49.842240,-119.664876,0,
103634,103634,McIver at Glenrosa,  49.834342,-119.659859,0,
103635,103635,Glenrosa 2940 Block,  49.830329,-119.656306,0,
103636,103636,McLeod at McCoy,  49.845943,-119.667786,0,
103637,103637,Glenrosa at Glen Abbey,  49.832010,-119.658657,0,
103638,103638,McLeod at Blue Jay,  49.847480,-119.669306,0,
103639,103639,Glenrosa at McIver,  49.834625,-119.661884,0,
103640,103640,Glenrosa at Parkhurst,  49.836535,-119.663346,0,
103641,103641,Canary at Blue Jay,  49.848702,-119.671692,0,
103642,103642,McGinnis at Liard,  49.838946,-119.666323,0,
103643,103643,Glenrosa at Dunfield,  49.824229,-119.653862,0,
103644,103644,Gates at McMurchie,  49.844691,-119.670194,0,
103645,103645,Glenrosa at Rosedale,  49.838199,-119.667391,0,
103646,103646,Oriole at Canary,  49.847523,-119.673190,0,
103647,103647,Gates at McPherson,  49.842001,-119.670234,0,
103648,103648,Salmon at Oriole,  49.845664,-119.672910,0,
103649,103649,Gates at Glenrosa,  49.840894,-119.670245,0,
103650,103650,Hwy 97 at Parkinson,  50.000744,-119.402788,0,
103652,103652,Hwy 97 at Commonwealth,  50.007110,-119.403201,0,
103653,103653,Hwy 97 at Commonwealth,  50.008331,-119.402754,0,
103654,103654,Hwy 97 at Beaver Lake,  50.020814,-119.406170,0,
103655,103655,Hwy 97 at Okanagan Centre,  50.021783,-119.406769,0,
103656,103656,Aerospace Rd  & Airport Way,  49.952067,-119.383340,0,
103657,103657,Hwy 97 at Pollard,  50.026270,-119.405360,0,
103658,103658,Main at Windfield,  50.023517,-119.404179,0,
103659,103659,Okanagan Centre at Berry,  50.030786,-119.410336,0,
103660,103660,Berry at Bottom Wood Lake,  50.029497,-119.402772,0,
103661,103661,Bottom Wood Lake 10220 block,  50.031059,-119.401909,0,
103662,103662,Okanagan Centre at Camp,  50.035858,-119.411562,0,
103663,103663,Lodge at Bottom Wood Lake,  50.034615,-119.400961,0,
103664,103664,Lodge at Meadow,  50.034645,-119.395356,0,
103665,103665,Huston at Huston,  49.795643,-119.698385,0,
103666,103666,Lodge 3580 Block,  50.034656,-119.393348,0,
103667,103667,Buchanan at Burden,  49.794582,-119.699329,0,
103668,103668,Okanagan Centre at Seaton,  50.041273,-119.414525,0,
103669,103669,Huston at Shaw,  49.794779,-119.701406,0,
103670,103670,Okanagan Centre at Williams,  50.044057,-119.416770,0,
103671,103671,Buchanan at Beach Avenue,  49.792418,-119.702556,0,
103672,103672,Huston at Lang,  49.792475,-119.705449,0,
103673,103673,Lodge at Quail,  50.040676,-119.391908,0,
103674,103674,Okanagan Centre 11330 Block,  50.047460,-119.418336,0,
103675,103675,Buchanan at Hwy 97 S,  49.789104,-119.707431,0,
103676,103676,Lodge at Sherman,  50.042989,-119.391357,0,
103677,103677,Okanagan Centre at Davidson,  50.050028,-119.419128,0,
103678,103678,Lodge 11200 Block,  50.045133,-119.390832,0,
103679,103679,Woodsdale at Turtle Bay,  50.049335,-119.407736,0,
103680,103680,Aerospace Dr & Airport Way,  49.952111,-119.383079,0,
103681,103681,Woodsdale at Bottom Wood Lake,  50.049339,-119.402667,0,
103682,103682,Trepanier Bench at Desert Pines,  49.786359,-119.710771,0,
103683,103683,Woodsdale at Reiswig,  50.049341,-119.397673,0,
103684,103684,Woodsdale at Lodge,  50.049365,-119.390960,0,
103685,103685,Oceola at Pretty (NB),  50.054690,-119.411244,0,
103686,103686,Peachland Village Centre,  49.784704,-119.717975,0,
103688,103688,Okanagan Centre at Oceola,  50.060042,-119.418691,0,
103689,103689,13th St at Lake,  49.782642,-119.723326,0,
103690,103690,13th St at Lake,  49.782699,-119.723101,0,
103691,103691,Beach at 11th St,  49.781917,-119.729107,0,
103692,103692,Beach at 11th St,  49.781202,-119.731116,0,
103693,103693,Beach at 8th St,  49.780514,-119.732036,0,
103694,103694,Beach at 6th St,  49.777590,-119.733789,0,
103695,103695,Beach at 6th St,  49.776371,-119.734211,0,
103696,103696,Beach at 5th St,  49.775370,-119.734640,0,
103697,103697,Beach at 5th St,  49.775280,-119.734961,0,
103698,103698,Beach at 4th St,  49.774509,-119.735437,0,
103699,103699,Beach at 4th St,  49.774295,-119.735277,0,
103700,103700,Beach at Highway 97,  49.770983,-119.738936,0,
103701,103701,Beach at Highway 97,  49.770480,-119.739710,0,
103702,103702,Princeton at Lakeview,  49.769934,-119.742624,0,
103703,103703,Princeton at Princess,  49.768789,-119.744640,0,
103704,103704,Princeton at Columbia,  49.768513,-119.745773,0,
103705,103705,Princeton at Somerset,  49.766682,-119.748252,0,
103706,103706,Princeton at Somerset,  49.766239,-119.748663,0,
103707,103707,Princeton at Lipsett,  49.764707,-119.751428,0,
103708,103708,Princeton at Lipsett,  49.764657,-119.751737,0,
103709,103709,Princeton at Gummow,  49.762583,-119.754717,0,
103710,103710,Princeton at Ellison,  49.762388,-119.757133,0,
103711,103711,Princeton at Turner,  49.759468,-119.760764,0,
103712,103712,Princeton at Turner,  49.759621,-119.761612,0,
103713,103713,Princeton at Whinton,  49.757002,-119.763564,0,
103714,103714,Princeton at Whinton,  49.756878,-119.763989,0,
103715,103715,Princeton at Vernon,  49.755119,-119.766365,0,
103716,103716,Princeton at Vernon,  49.755062,-119.766993,0,
103717,103717,Princeton 5000 Block,  49.753777,-119.771651,0,
103718,103718,Princeton 5000 Block,  49.753643,-119.771485,0,
103719,103719,Princeton at Forest Hill,  49.752414,-119.778416,0,
103720,103720,Princeton at Keyes,  49.752294,-119.778558,0,
103721,103721,Princeton at Pineridge,  49.752133,-119.783572,0,
103722,103722,Princeton at Pineridge,  49.752000,-119.783545,0,
103723,103723,Princeton at Bradbury,  49.751924,-119.787646,0,
103744,103744,Hwy 97 at Westside Road - Westside Road Stn,  49.881858,-119.536440,0,
103745,103745,Hwy 97 at Sneena - Westside Road Stn,  49.880823,-119.534995,0,
103800,103800,Lequime 670 block,  49.835566,-119.484825,0,
103801,103801,Lequime 670 block (EB),  49.835561,-119.484333,0,
103802,103802,Lakeshore at Old Meadows,  49.832564,-119.487344,0,
103803,103803,Lakeshore at Simeon,  49.828395,-119.488805,0,
103804,103804,Lakeshore at Willms,  49.826054,-119.488838,0,
103805,103805,Chute Lake at Barnaby,  49.809916,-119.497759,0,
103806,103806,Chute Lake at Chute Lake Cresent,  49.801792,-119.498170,0,
103807,103807,Chute Lake at Chute Lake Cresent,  49.801875,-119.497815,0,
103808,103808,Chute Lake at South Crest,  49.798376,-119.499105,0,
103809,103809,Chute Lake at South Crest,  49.798863,-119.498774,0,
103810,103810,Chute Lake 5160 Block,  49.795713,-119.502598,0,
103811,103811,Chute Lake at Lark,  49.795388,-119.508634,0,
103812,103812,Chute Lake at Hedeman,  49.794580,-119.510645,0,
103813,103813,Chute Lake at Lakepointe,  49.790987,-119.513940,0,
103814,103814,Chute Lake at Farron,  49.789321,-119.517954,0,
103815,103815,Gordon at Old Meadows,  49.832381,-119.483105,0,
103816,103816,Gordon at Young,  49.828929,-119.483105,0,
103817,103817,Gordon at Young,  49.828434,-119.483365,0,
103818,103818,Gordon at Tozer,  49.824264,-119.483043,0,
103820,103820,Gordon at Raymer,  49.819715,-119.482991,0,
103821,103821,Gordon at Raymer,  49.818865,-119.483240,0,
103824,103824,Gordon at McClure,  49.816117,-119.482952,0,
103825,103825,Gordon at McClure,  49.815363,-119.483177,0,
103826,103826,Gordon at Buck,  49.813672,-119.483192,0,
103827,103827,Gordon at Paret,  49.810943,-119.477958,0,
103828,103828,Gordon at Paret,  49.811059,-119.477785,0,
103829,103829,Gordon 870 Block,  49.809641,-119.471665,0,
103833,103833,Arbor View at Windsong,  49.806094,-119.477386,0,
103844,103844,Princeton at Pierce,  49.753158,-119.790038,0,
103845,103845,Country Club at Via Central,  49.954973,-119.399753,0,
103846,103846,Innovation at Fleet,  49.949521,-119.389630,0,
103847,103847,Innovation at Fleet,  49.950150,-119.389815,0,
103848,103848,Country Club at Quail Ridge,  49.962902,-119.399077,0,
103849,103849,Country Club at Via Central,  49.955036,-119.399958,0,
103851,103851,Quail Ridge at Country Club,  49.962491,-119.398245,0,
103852,103852,Country Club 1840 block,  49.953112,-119.399438,0,
103853,103853,Country Club Drive 1840 Block,  49.953002,-119.399680,0,
103858,103858,Country Club 1740 block,  49.951168,-119.399763,0,
104212,104212,Shannon Lake at Shannon Woods Drive,  49.865892,-119.605815,0,
104911,104911,Old Okanagan at Skyview,  49.844917,-119.609467,0,
104912,104912,Beach at 12th St,  49.781823,-119.726075,0,
104913,104913,Old Vernon at Teather,  49.961447,-119.368750,0,
104914,104914,Crawford 1240 Block,  49.820415,-119.466778,0,
104915,104915,Airport Way at Hwy 97,  49.952105,-119.388446,0,
104916,104916,Innovation at Airport Way,  49.951647,-119.389576,0,
140000,140000,Highway 97 at Bertram,  49.883844,-119.491439,0,
140001,140001,Woodsdale at Bottom Wood Lake,  50.049344,-119.404001,0,
140002,140002,Highway 97 at Gordon,  49.883752,-119.478706,0,
140003,140003,Highway 97 at Gordon,  49.883267,-119.475337,0,
140004,140004,Westbank Exchange,  49.828648,-119.631148,0,
140005,140005,Westbank Exchange,  49.829331,-119.631117,0,
140006,140006,Westbank Exchange,  49.828750,-119.630792,0,
140007,140007,Boucherie Mountain Exchange,  49.862085,-119.585281,0,
140008,140008,Boucherie Mountain Exchange,  49.862138,-119.584936,0,
140009,140009,Boucherie Mountain Exchange,  49.862094,-119.585110,0,
140010,140010,Boucherie Mountain Exchange,  49.861538,-119.585188,0,
140011,140011,Boucherie Mountain Exchange,  49.861386,-119.585177,0,
140012,140012,Gordon at Lexington,  49.839336,-119.482447,0,
140013,140013,Sneena at Westside,  49.880690,-119.534173,0,
140014,140014,Bottom Wood Lake at Konschuh,  50.028711,-119.399357,0,
140015,140015,Bottom Wood Lake at Seniors Centre,  50.023462,-119.399205,0,
140016,140016,Beaver Lake at Jensen,  50.020172,-119.401057,0,
140017,140017,Main at Hill,  50.020835,-119.404179,0,
140018,140018,Ellis at Clement,  49.893181,-119.493396,0,
140019,140019,Clement at Richter,  49.893488,-119.487941,0,
140020,140020,Clement at Ethel,  49.893467,-119.482296,0,
140021,140021,Gordon at Coronation,  49.892379,-119.477131,0,
140022,140022,Gordon at Bernard,  49.886779,-119.477164,0,
140023,140023,Gordon at Laurier,  49.882371,-119.477219,0,
140024,140024,Gordon at KLO,  49.860216,-119.474513,0,
140025,140025,Gordon at Lanfranco,  49.857063,-119.474585,0,
140026,140026,Gordon at Casorso,  49.850557,-119.476978,0,
140027,140027,Gordon at Cook,  49.845169,-119.480603,0,
140028,140028,Gordon at Lexington,  49.839910,-119.482082,0,
140029,140029,Gordon at Cook,  49.845721,-119.479876,0,
140030,140030,Gordon at Casorso,  49.851242,-119.476153,0,
140031,140031,Gordon at Bothe,  49.857680,-119.474219,0,
140032,140032,Gordon at KLO,  49.860177,-119.474164,0,
140033,140033,Gordon at Raymer,  49.865329,-119.474100,0,
140034,140034,Gordon at Cameron,  49.870559,-119.474763,0,
140035,140035,Gordon at Guisachan,  49.873192,-119.476146,0,
140036,140036,Gordon at Springfield,  49.877240,-119.476939,0,
140037,140037,Gordon at Harvey,  49.882587,-119.476881,0,
140038,140038,Gordon at Bernard,  49.886885,-119.476835,0,
140039,140039,Gordon at Cawston,  49.891852,-119.476877,0,
140040,140040,Clement at Ethel,  49.893617,-119.483303,0,
140041,140041,Clement at Richter,  49.893650,-119.488889,0,
140042,140042,Ellis at Clement,  49.893153,-119.493617,0,
140043,140043,Cadder at Richter,  49.876261,-119.487621,0,
140044,140044,Ellis at Doyle,  49.890383,-119.493404,0,
140045,140045,Cadder at Ethel,  49.876417,-119.483137,0,
140046,140046,Cadder at Richter,  49.876411,-119.488914,0,
140047,140047,Cadder at Pandosy,  49.876263,-119.490704,0,
140048,140048,Springfield at Gordon,  49.876867,-119.478149,0,
140049,140049,Hwy 97 at Richter,  49.883484,-119.490351,0,
140050,140050,Clement at Gordon,  49.893682,-119.477769,0,
140051,140051,Clement at Gordon,  49.893372,-119.475888,0,
140052,140052,Kelowna General Hospital,  49.872502,-119.491391,0,
140053,140053,Pandosy at Osprey,  49.865794,-119.491082,0,
140054,140054,Woodsdale at Bottom Wood Lake,  50.049203,-119.403999,0,
140055,140055,KLO at Benvoulin,  49.860846,-119.455012,0,
140056,140056,Bernard at Elm,  49.886213,-119.465795,0,
140057,140057,Ellis 1300 Block,  49.889823,-119.493630,0,
140058,140058,Asquith at Saddleback,  49.850727,-119.623528,0,
140059,140059,Ironridge at Ironridge Pl.,  49.854497,-119.627819,0,
140060,140060,WildHorse at Bridlehill,  49.853878,-119.633022,0,
140061,140061,WildHorse at Bridlehill,  49.853485,-119.635579,0,
140062,140062,Whispering Hills at Wild Horse,  49.852284,-119.641658,0,
140063,140063,CopperRidge at Smith,  49.853908,-119.643851,0,
140064,140064,Smith Creek at Sugosa,  49.851763,-119.643095,0,
140065,140065,Hudson at Concord,  49.862684,-119.562907,0,
140066,140066,Hudson at Westlake,  49.862631,-119.563892,0,
140067,140067,Louie at Butt,  49.837768,-119.615676,0,
140068,140068,Louie at Elk,  49.840285,-119.612265,0,
140069,140069,Stevens at Mcdougall,  49.865980,-119.567468,0,
140071,140071,Hwy 97 at Butt,  49.837125,-119.614166,0,
140072,140072,Hwy 97 at Butt,  49.835323,-119.617136,0,
140073,140073,Hwy 97 at Westlake,  49.864230,-119.562830,0,
140074,140074,Hwy 97 at Westlake - Hudson Station,  49.863219,-119.566566,0,
140077,140077,Bottom Wood Lake at Powley,  50.037816,-119.403101,0,
140078,140078,Bottom Wood Lake at Mayrus,  50.043116,-119.403155,0,
140079,140079,Bottom Wood Lake at Wageman,  50.045966,-119.403122,0,
140080,140080,Lake Hill at Lake Breeze,  50.065980,-119.419004,0,
140081,140081,Shoreline at Stillwater,  50.068593,-119.420104,0,
140082,140082,Shoreline Way at Lake Hill,  50.073517,-119.417260,0,
140083,140083,Lake Hill at Shoreline Way,  50.071711,-119.416468,0,
140084,140084,Stillwater at Lake Hill,  50.069555,-119.418569,0,
140085,140085,Stillwater at Driftwood,  50.067840,-119.419294,0,
140086,140086,Lake Hill at Lake Breeze,  50.066288,-119.419065,0,
140087,140087,Lake Hill at Oceola,  50.061205,-119.418380,0,
140088,140088,Oceola at Pretty,  50.054704,-119.411453,0,
140089,140089,Woodsdale at Turtle Bay,  50.049195,-119.407624,0,
140090,140090,Bottom Wood Lake at Wageman,  50.046292,-119.402931,0,
140091,140091,Bottom Wood Lake at Mayrus,  50.043349,-119.402901,0,
140092,140092,Bottom Wood Lake at Powley,  50.038302,-119.402878,0,
140093,140093,Bottom Wood Lake at Berry,  50.030315,-119.401959,0,
140094,140094,East Boundary at Wolfe,  49.839307,-119.591795,0,
140095,140095,East Boundary at Wolfe,  49.839162,-119.591811,0,
140096,140096,Lake Hill at Oceola,  50.061049,-119.418137,0,
140098,140098,Alumni Ave at Transit Way,  49.939929,-119.394638,0,
140099,140099,UBCO Exchange,  49.939310,-119.394996,0,
140100,140100,Transit Way at Alumni Ave,  49.939482,-119.394267,0,
140101,140101,UBCO Exchange,  49.939429,-119.394061,0,
140102,140102,UBCO Exchange,  49.939382,-119.393873,0,
140103,140103,UBCO Exchange,  49.939348,-119.393726,0,
140104,140104,UBCO Exchange,  49.939979,-119.394332,0,
140105,140105,Edwards Rd at Hwy 97,  49.924263,-119.385031,0,
140106,140106,Edwards Rd at Hwy 97,  49.924517,-119.385803,0,
140107,140107,Acland at Penno,  49.922140,-119.384018,0,
140108,140108,Acland at Penno,  49.921585,-119.383759,0,
140109,140109,Acland Rd at Old Vernon Rd,  49.918609,-119.383868,0,
140110,140110,Rutland at Old Vernon Rd,  49.917802,-119.384583,0,
140111,140111,Rutland at Commercial Dr.,  49.915085,-119.386892,0,
140112,140112,Rutland at Commercial Dr.,  49.915580,-119.385904,0,
140113,140113,Hwy 97 at Sexsmith - Sexsmith Station,  49.916959,-119.389041,0,
140114,140114,Hwy 97 at Old Vernon Road - Sexsmith Stn.,  49.918993,-119.386967,0,
140115,140115,Quailridge at Innovation Drive,  49.951937,-119.389973,0,
140116,140116,Elk at Acorn,  49.839228,-119.605929,0,
140117,140117,Elk at Acorn,  49.839102,-119.606052,0,
140131,140131,Glenmore at Cross,  49.923368,-119.438328,0,
140132,140132,Glenmore at Union,  49.927654,-119.434738,0,
140133,140133,Glenmore at Union,  49.926307,-119.436070,0,
140134,140134,Glenmore at Scenic,  49.932964,-119.433206,0,
140135,140135,Glenmore at Scenic,  49.932879,-119.433541,0,
140136,140136,John Hindle at Glenmore,  49.946354,-119.421830,0,
140137,140137,John Hindle at Glenmore,  49.947667,-119.424654,0,
140138,140138,John Hindle at Campus Way,  49.938269,-119.401675,0,
140139,140139,John Hindle at Campus Way,  49.938589,-119.401818,0,
140140,140140,Academy at Shetland,  49.922397,-119.398022,0,
140141,140141,Academy Way at Arab,  49.922794,-119.399704,0,
140142,140142,Academy Way at Vint,  49.928309,-119.399929,0,
140143,140143,Academy Way at Vint,  49.928169,-119.400106,0,
140144,140144,Academy Way at Acadia,  49.932283,-119.401323,0,
140145,140145,Academy Way at Acadia,  49.932114,-119.401399,0,
140146,140146,Academy Way at Aberdeen Hall,  49.934695,-119.401086,0,
140147,140147,Academy Way at Aberdeen Hall,  49.934627,-119.401374,0,
140148,140148,Rutland Exchange,  49.890663,-119.391887,0,
140149,140149,Rutland Exchange,  49.890663,-119.390829,0,
140150,140150,Rutland Exchange,  49.890511,-119.392352,0,
140151,140151,Rutland Exchange,  49.890524,-119.391804,0,
140152,140152,Dougall at Hwy 33,  49.889424,-119.392740,0,
140153,140153,Westlake at Peak Point,  49.883947,-119.560436,0,
140154,140154,Parkinson Rd at 1385 Block,  49.895938,-119.549693,0,
140155,140155,Bear Creek at Vancouver,  49.895268,-119.547438,0,
140156,140156,Sexsmith at Adams,  49.918220,-119.389932,0,
140157,140157,Sexsmith at Adams,  49.918103,-119.389012,0,
140159,140159,Innovation at University,  49.942545,-119.390465,0,
140160,140160,Innovation at University,  49.943397,-119.390212,0,
140161,140161,Arbor View at Steele,  49.806439,-119.472720,0,
140162,140162,John Hindle at Landfill,  49.944360,-119.415913,0,
140163,140163,John Hindle at Landfill,  49.945312,-119.415912,0,
140164,140164,Shepherd at Roxby,  49.890520,-119.390283,0,
140165,140165,Boucherie Exchange,  49.862173,-119.583459,0,
140166,140166,Asquith at Saddleback,  49.851135,-119.624585,0,
140167,140167,Copper Ridge at Smith Creek,  49.853789,-119.643770,0,
140168,140168,Daimler at Auburn,  49.857701,-119.599556,0,
140169,140169,Shannon Lake at Crystal,  49.867086,-119.590935,0,
140170,140170,Shannon Way at Westville,  49.848883,-119.615411,0,
140171,140171,Wildhorse at Bridlehill,  49.853767,-119.632940,0,
140172,140172,Elliott at Butt,  49.837204,-119.630839,0,
140173,140173,Elliott at Reece,  49.844515,-119.633666,0,
140174,140174,Elliott at Springer Lane,  49.833277,-119.630636,0,
140175,140175,Elliott at Neufeld,  49.841795,-119.633616,0,
140176,140176,Elliott at Solar,  49.831708,-119.630408,0,
140177,140177,Shannon Ridge.2179 Block,  49.855803,-119.605362,0,
140178,140178,Wildhorse.2569 Block,  49.853129,-119.636329,0,
140179,140179,Auburn.2886 Block,  49.855492,-119.600467,0,
140180,140180,Bartley at Byland,  49.863288,-119.587471,0,
140183,140183,Ironridge at Ironridge Crt,  49.854551,-119.627579,0,
140184,140184,Shannon Lake at Golf Course Drive,  49.863236,-119.609627,0,
140185,140185,Shannon Lake at Shannon View Drive,  49.865816,-119.605189,0,
140186,140186,Shannon Lake at Shannon Lake Drive,  49.866849,-119.599969,0,
140187,140187,Shannon Lake at Shannon Ridge,  49.853139,-119.617522,0,
140188,140188,Shannon Lake at Stonegrove,  49.858210,-119.616741,0,
140189,140189,Shannon Lake at Swite,  49.855404,-119.617707,0,
140190,140190,Shannon Lake at Tallus Ridge Drive,  49.862628,-119.612628,0,
140191,140191,Shannon Lake at Tallus Ridge,  49.863249,-119.612179,0,
140192,140192,Whispering Hills at Copper Ridge,  49.853435,-119.639861,0,
140193,140193,Woodstock at Sandstone,  49.850253,-119.613678,0,
140194,140194,Shannon Ridge at Ridge Place,  49.853262,-119.613837,0,
140195,140195,Shannon Ridge at Shannon Green Court,  49.854672,-119.611298,0,
140196,140196,Smith Creek at Elliott,  49.847614,-119.639049,0,
140197,140197,Smith Creek at Wild Horse,  49.851408,-119.642459,0,
140198,140198,Shannon Ridge Drive. 2176 Block,  49.856059,-119.605672,0,
140199,140199,Auburn at Shelby,  49.856392,-119.600909,0,
140200,140200,Auburn at Shannon Ridge,  49.854798,-119.600940,0,
140201,140201,Bartley at Shannon Lake,  49.864300,-119.587932,0,
140204,140204,Shannon Lake at Alexandria,  49.854882,-119.618248,0,
140205,140205,Shannon Lake at Stonegrove,  49.858226,-119.617035,0,
140206,140206,Shannon Lake at Asquith,  49.851555,-119.618534,0,
140207,140207,Shannon Ridge at Lakeside Court,  49.853678,-119.613637,0,
140208,140208,Shannon Ridge at Shannon Green,  49.854699,-119.611599,0,
140209,140209,Daimler at Auburn,  49.857827,-119.599302,0,
140210,140210,Shannon Lake at Crystal Drive,  49.868689,-119.592764,0,
140211,140211,Shannon Lake at Shannon Lake,  49.866898,-119.600418,0,
